{
  "cities": [
    {
      "cityName": "Lisbon",
      "country": "Portugal",
      "emoji": "ðŸ‡µðŸ‡¹",
      "date": "2027-10-31T15:59:59.138Z",
      "notes": "My favorite city so far!",
      "position": {
        "lat": 38.727881642324164,
        "lng": -9.140900099907554
      },
      "id": 73930385
    },
    {
      "cityName": "Madrid",
      "country": "Spain",
      "emoji": "ðŸ‡ªðŸ‡¸",
      "date": "2027-07-15T08:22:53.976Z",
      "notes": "",
      "position": {
        "lat": 40.46635901755316,
        "lng": -3.7133789062500004
      },
      "id": 17806751
    },
    {
      "cityName": "Berlin",
      "country": "Germany",
      "emoji": "ðŸ‡©ðŸ‡ª",
      "date": "2027-02-12T09:24:11.863Z",
      "notes": "Amazing ðŸ˜ƒ",
      "position": {
        "lat": 52.53586782505711,
        "lng": 13.376933665713324
      },
      "id": 98443197
    },
    {
      "cityName": "Magione",
      "country": "Italy",
      "emoji": "ðŸ‡®ðŸ‡¹",
      "date": "2026-01-04T04:58:43.678Z",
      "notes": "",
      "position": {
        "lat": "43.101747258393814",
        "lng": "12.178978223791654"
      },
      "id": 98443198
    },
    {
      "cityName": "Fabiansebestyen",
      "country": "Hungary",
      "emoji": "ðŸ‡­ðŸ‡º",
      "date": "2026-01-04T05:00:35.854Z",
      "notes": "",
      "position": {
        "lat": "46.694991644275355",
        "lng": "20.41255638370426"
      },
      "id": 98443199
    },
    {
      "cityName": "Commune de Maadid",
      "country": "Algeria",
      "emoji": "ðŸ‡©ðŸ‡¿",
      "date": "2026-01-04T05:01:12.515Z",
      "notes": "",
      "position": {
        "lat": "35.80263704500465",
        "lng": "4.6362068927427345"
      },
      "id": 98443200
    },
    {
      "cityName": "Brezina",
      "country": "Algeria",
      "emoji": "ðŸ‡©ðŸ‡¿",
      "date": "2026-01-04T05:02:02.044Z",
      "notes": "",
      "position": {
        "lat": "33.011267499120606",
        "lng": "2.132765902230776"
      },
      "id": 98443201
    },
    {
      "cityName": "Maatarka",
      "country": "Morocco",
      "emoji": "ðŸ‡²ðŸ‡¦",
      "date": "2026-01-04T05:09:29.355Z",
      "notes": "",
      "position": {
        "lat": "32.9830511392992",
        "lng": "-2.7245702087343893"
      },
      "id": 98443202
    },
    {
      "cityName": "Skaftarhreppur",
      "country": "Iceland",
      "emoji": "ðŸ‡®ðŸ‡¸",
      "date": "2026-01-04T05:09:42.691Z",
      "notes": "c",
      "position": {
        "lat": "64.15307452310262",
        "lng": "-18.085105821417603"
      },
      "id": 98443203
    },
    {
      "cityName": "Skaftarhreppur",
      "country": "Iceland",
      "emoji": "ðŸ‡®ðŸ‡¸",
      "date": "2026-01-04T05:09:42.691Z",
      "notes": "c",
      "position": {
        "lat": "64.15307452310262",
        "lng": "-18.085105821417603"
      },
      "id": 98443204
    },
    {
      "cityName": "Villardeciervos",
      "country": "Spain",
      "emoji": "ðŸ‡ªðŸ‡¸",
      "date": "2026-01-04T05:16:05.459Z",
      "notes": "",
      "position": {
        "lat": "41.93436362694367",
        "lng": "-6.326196084721876"
      },
      "id": 98443205
    },
    {
      "cityName": "Mauvezin",
      "country": "France",
      "emoji": "ðŸ‡«ðŸ‡·",
      "date": "2026-01-04T05:16:12.951Z",
      "notes": "",
      "position": {
        "lat": "43.37838852601836",
        "lng": "0.925922188421531"
      },
      "id": 98443206
    },
    {
      "cityName": "Bachchannapet",
      "country": "India",
      "emoji": "ðŸ‡®ðŸ‡³",
      "date": "2026-01-04T05:16:51.726Z",
      "notes": "",
      "position": {
        "lat": "17.763151374795857",
        "lng": "79.01367691222708"
      },
      "id": 98443207
    }
  ]
}