{
  "cities": [
    {
      "cityName": "Lisbon",
      "country": "Portugal",
      "emoji": "ðŸ‡µðŸ‡¹",
      "date": "2027-10-31T15:59:59.138Z",
      "notes": "My favorite city so far!",
      "position": {
        "lat": 38.727881642324164,
        "lng": -9.140900099907554
      },
      "id": 73930385
    },
    {
      "cityName": "Madrid",
      "country": "Spain",
      "emoji": "ðŸ‡ªðŸ‡¸",
      "date": "2027-07-15T08:22:53.976Z",
      "notes": "",
      "position": {
        "lat": 40.46635901755316,
        "lng": -3.7133789062500004
      },
      "id": 17806751
    },
    {
      "cityName": "Magione",
      "country": "Italy",
      "emoji": "ðŸ‡®ðŸ‡¹",
      "date": "2026-01-04T04:58:43.678Z",
      "notes": "",
      "position": {
        "lat": "43.101747258393814",
        "lng": "12.178978223791654"
      },
      "id": 98443198
    },
    {
      "cityName": "Maderuelo",
      "country": "Spain",
      "emoji": "ðŸ‡ªðŸ‡¸",
      "date": "2026-01-05T13:39:06.787Z",
      "notes": "",
      "position": {
        "lat": "41.558879236886064",
        "lng": "-3.537578484774633"
      },
      "id": 98443199
    },
    {
      "cityName": "Abrantes",
      "country": "Portugal",
      "emoji": "ðŸ‡µðŸ‡¹",
      "date": "2026-01-05T13:39:16.631Z",
      "notes": "",
      "position": {
        "lat": "39.590701277064404",
        "lng": "-8.173803207895261"
      },
      "id": 98443200
    },
    {
      "cityName": "Santa Cruz de Grio",
      "country": "Spain",
      "emoji": "ðŸ‡ªðŸ‡¸",
      "date": "2026-01-05T13:39:33.134Z",
      "notes": "",
      "position": {
        "lat": "41.361332294577885",
        "lng": "-1.4282145163830597"
      },
      "id": 98443201
    }
  ]
}